[
  {
    "locationName": "Chez Papy",
    "items": [
      {
        "title": "three",
        "location": {
          "name": "Chez Papy",
          "city": "Paris",
          "region": "Ile de France",
          "country": "France"
        }
      }
    ],
    "city": "Paris"
  },
  {
    "locationName": "Gaité Lyrique",
    "items": [
      {
        "title": "one",
        "location": {
          "name": "Gaité Lyrique",
          "city": "Paris",
          "region": "Ile de France",
          "country": "France"
        }
      }
    ],
    "city": "Paris"
  },
  {
    "locationName": "L'Ossuaire de Douaumont",
    "items": [
      {
        "title": "four",
        "location": {
          "name": "L'Ossuaire de Douaumont",
          "city": "Verdun",
          "region": "Grand-Est",
          "country": "France"
        }
      }
    ],
    "city": "Verdun"
  },
  {
    "locationName": "Le Select",
    "items": [
      {
        "title": "two",
        "location": {
          "name": "Le Select",
          "city": "Paris",
          "region": "Ile de France",
          "country": "France"
        }
      }
    ],
    "city": "Paris"
  }
]